{
  "colonia_kennedy": {
    "name": "Colonia Kennedy",
    "lat": 14.0833,
    "lon": -87.1833,
    "municipio": "Tegucigalpa",
    "departamento": "Francisco Morazán",
    "type": "colonia",
    "added": "2024-01-01T00:00:00.000Z",
    "source": "official"
  },
  "prueba": {
    "name": "Prueba",
    "lat": 15.5,
    "lon": -88.0,
    "municipio": "Test",
    "departamento": "Test",
    "type": "colonia",
    "added": "2026-02-07T19:53:59.092420",
    "approved": true,
    "source": "user_submission",
    "detected_automatically": true,
    "full_address": "Test"
  },
  "la_puntilla_(san_jose_del_boqueron)": {
    "name": "La Puntilla (San José del Boquerón)",
    "lat": 15.513225966051195,
    "lon": -87.90307562239109,
    "municipio": "San Pedro Sula",
    "departamento": "Cortés",
    "type": "colonia",
    "added": "2026-02-07T22:44:39.572323",
    "approved": true,
    "source": "user_submission",
    "detected_automatically": true,
    "full_address": "San José del Boquerón, San Pedro Sula, Cortés, Honduras"
  },
  "calle_principal_el_porvenir_el_filon": {
    "name": "Calle Principal El Porvenir El Filon",
    "lat": 15.479624810996512,
    "lon": -87.55898314167956,
    "municipio": "Morazán",
    "departamento": "Yoro",
    "type": "colonia",
    "added": "2026-02-07T22:51:23.580253",
    "approved": true,
    "source": "user_submission",
    "detected_automatically": true,
    "full_address": "Calle Principal El Porvenir El Filon, Morazán, Yoro, Honduras"
  },
  "barrio_las_acacias": {
    "name": "Barrio Las Acacias",
    "lat": 15.511222936091048,
    "lon": -88.02192202900177,
    "municipio": "San Pedro Sula",
    "departamento": "Cortés",
    "type": "barrio",
    "added": "2026-02-08T00:07:53.856104",
    "approved": true,
    "source": "user_submission",
    "detected_automatically": true,
    "full_address": "Pinturas Sur, 8a Calle NO, San Pedro Sula, Cortés, 21102, Honduras"
  },
  "barrio_concepcion": {
    "name": "Barrio Concepcion",
    "lat": 15.501913181237823,
    "lon": -88.02058079877395,
    "municipio": "San Pedro Sula",
    "departamento": "Cortés",
    "type": "barrio",
    "added": "2026-02-08T00:12:43.002145",
    "approved": true,
    "source": "user_submission",
    "detected_automatically": true,
    "full_address": "5a Calle SE, San Pedro Sula, Cortés, 21104, Honduras"
  },
  "colonia_satelite": {
    "name": "Colonia Satelite",
    "lat": 15.48996848599614,
    "lon": -87.98832721896284,
    "municipio": "San Pedro Sula",
    "departamento": "Cortés",
    "type": "colonia",
    "added": "2026-02-08T00:18:57.434181",
    "approved": true,
    "source": "user_submission",
    "detected_automatically": true,
    "full_address": "Pasaje 32, San Pedro Sula, Cortés, 21103, Honduras"
  }
}